{
"type": "FeatureCollection",
"name": "huyck_points",
"crs": { "type": "name", "properties": { "name": "urn:ogc:def:crs:OGC:1.3:CRS84" } },
"features": [
{ "type": "Feature", "properties": { "id": null, "name": "Eldridge Research Center", "icon": "Research Center" }, "geometry": { "type": "Point", "coordinates": [ -74.159431250679489, 42.526765418416623 ] } },
{ "type": "Feature", "properties": { "id": null, "name": "Eldridge Parking Area", "icon": "Parking" }, "geometry": { "type": "Point", "coordinates": [ -74.158020947347424, 42.526179589385826 ] } },
{ "type": "Feature", "properties": { "id": null, "name": "Parking Area", "icon": "Parking" }, "geometry": { "type": "Point", "coordinates": [ -74.139764623232267, 42.515321369754915 ] } },
{ "type": "Feature", "properties": { "id": null, "name": "Huyck Preserve Visitor Center", "icon": "Visitor Center" }, "geometry": { "type": "Point", "coordinates": [ -74.140773611140759, 42.515295022624599 ] } },
{ "type": "Feature", "properties": { "id": null, "name": "Picnic Area", "icon": "Picnic Area" }, "geometry": { "type": "Point", "coordinates": [ -74.140319562861521, 42.515808853491251 ] } },
{ "type": "Feature", "properties": { "id": null, "name": "Myosotis Dam", "icon": "Dam" }, "geometry": { "type": "Point", "coordinates": [ -74.145467203636159, 42.518948182457208 ] } },
{ "type": "Feature", "properties": { "id": null, "name": "Picnic Area", "icon": "Picnic Area" }, "geometry": { "type": "Point", "coordinates": [ -74.147630307445979, 42.520854944110596 ] } },
{ "type": "Feature", "properties": { "id": null, "name": "Bullfrog Camp", "icon": "Building" }, "geometry": { "type": "Point", "coordinates": [ -74.160372838733267, 42.527684893382855 ] } },
{ "type": "Feature", "properties": { "id": null, "name": "Rensselaerville Falls", "icon": "Waterfall" }, "geometry": { "type": "Point", "coordinates": [ -74.143298702102229, 42.514934885049044 ] } },
{ "type": "Feature", "properties": { "id": null, "name": null, "icon": "Parking" }, "geometry": { "type": "Point", "coordinates": [ -74.156732384997795, 42.526119022493198 ] } }
]
}
